{
    "type": "FeatureCollection",
    "name": "GHGRP_landfills",
    "crs": { "type": "name", "properties": { "name": "urn:ogc:def:crs:OGC:1.3:CRS84" } },
    "features": [
        {
            "type": "Feature",
            "properties": {
                "ID": 22206,
                "DateCreated": "2023-03-15",
                "DateUpdated": "2023-03-15",
                "DateExtractedfromSource": null,
                "Sector": "Waste Management",
                "RecordOrigin": "Collected",
                "ReviewStatus": "Pending",
                "geo_txt": { "coordinates": [-67.152653, 17.976252], "type": "Point" },
                "Facility": "Landfills",
                "DataSource": "GHGRP",
                "LocationExtractedfromSource": "Cabo Rojo-PR",
                "City": "Boqueron",
                "Country": "Puerto Rico",
                "Link": "ghgdata.epa.gov/ghgp/main.do"
            },
            "geometry": { "type": "Point", "coordinates": [-67.152653, 17.976252] }
        },
        {
            "type": "Feature",
            "properties": {
                "ID": 34326,
                "DateCreated": "2023-03-15",
                "DateUpdated": "2023-03-15",
                "DateExtractedfromSource": null,
                "Sector": "Waste Management",
                "RecordOrigin": "Collected",
                "ReviewStatus": "Pending",
                "geo_txt": { "coordinates": [-66.625644, 18.466542], "type": "Point" },
                "Facility": "Landfills",
                "DataSource": "GHGRP",
                "LocationExtractedfromSource": "Arecibo-PR",
                "City": "Garrochales",
                "Country": "Puerto Rico",
                "Link": "ghgdata.epa.gov/ghgp/main.do"
            },
            "geometry": { "type": "Point", "coordinates": [-66.625644, 18.466542] }
        },
        {
            "type": "Feature",
            "properties": {
                "ID": 34328,
                "DateCreated": "2023-03-15",
                "DateUpdated": "2023-03-15",
                "DateExtractedfromSource": null,
                "Sector": "Waste Management",
                "RecordOrigin": "Collected",
                "ReviewStatus": "Pending",
                "geo_txt": { "coordinates": [-67.150378, 18.17882], "type": "Point" },
                "Facility": "Landfills",
                "DataSource": "GHGRP",
                "LocationExtractedfromSource": "Mayaguez-PR",
                "City": "Santurce",
                "Country": "Puerto Rico",
                "Link": "ghgdata.epa.gov/ghgp/main.do"
            },
            "geometry": { "type": "Point", "coordinates": [-67.150378, 18.17882] }
        },
        {
            "type": "Feature",
            "properties": {
                "ID": 34322,
                "DateCreated": "2023-03-15",
                "DateUpdated": "2023-03-15",
                "DateExtractedfromSource": null,
                "Sector": "Waste Management",
                "RecordOrigin": "Collected",
                "ReviewStatus": "Pending",
                "geo_txt": { "coordinates": [-66.0816, 18.4358], "type": "Point" },
                "Facility": "Landfills",
                "DataSource": "GHGRP",
                "LocationExtractedfromSource": "San Juan-PR",
                "City": null,
                "Country": "Puerto Rico",
                "Link": "ghgdata.epa.gov/ghgp/main.do"
            },
            "geometry": { "type": "Point", "coordinates": [-66.0816, 18.4358] }
        },
        {
            "type": "Feature",
            "properties": {
                "ID": 34327,
                "DateCreated": "2023-03-15",
                "DateUpdated": "2023-03-15",
                "DateExtractedfromSource": null,
                "Sector": "Waste Management",
                "RecordOrigin": "Collected",
                "ReviewStatus": "Pending",
                "geo_txt": { "coordinates": [-66.843932, 18.0656], "type": "Point" },
                "Facility": "Landfills",
                "DataSource": "GHGRP",
                "LocationExtractedfromSource": "Yauco-PR",
                "City": "Yauco",
                "Country": "Puerto Rico",
                "Link": "ghgdata.epa.gov/ghgp/main.do"
            },
            "geometry": { "type": "Point", "coordinates": [-66.843932, 18.0656] }
        },
        {
            "type": "Feature",
            "properties": {
                "ID": 22188,
                "DateCreated": "2023-03-15",
                "DateUpdated": "2023-03-15",
                "DateExtractedfromSource": null,
                "Sector": "Waste Management",
                "RecordOrigin": "Collected",
                "ReviewStatus": "Pending",
                "geo_txt": { "coordinates": [-66.236355, 17.957711], "type": "Point" },
                "Facility": "Landfills",
                "DataSource": "GHGRP",
                "LocationExtractedfromSource": "SALINAS-PR",
                "City": "Central Aguirre",
                "Country": "Puerto Rico",
                "Link": "ghgdata.epa.gov/ghgp/main.do"
            },
            "geometry": { "type": "Point", "coordinates": [-66.236355, 17.957711] }
        },
        {
            "type": "Feature",
            "properties": {
                "ID": 22181,
                "DateCreated": "2023-03-15",
                "DateUpdated": "2023-03-15",
                "DateExtractedfromSource": null,
                "Sector": "Waste Management",
                "RecordOrigin": "Collected",
                "ReviewStatus": "Pending",
                "geo_txt": { "coordinates": [-65.93762, 18.408363], "type": "Point" },
                "Facility": "Landfills",
                "DataSource": "GHGRP",
                "LocationExtractedfromSource": "Carolina-PR",
                "City": "Carolina",
                "Country": "Puerto Rico",
                "Link": "ghgdata.epa.gov/ghgp/main.do"
            },
            "geometry": { "type": "Point", "coordinates": [-65.93762, 18.408363] }
        },
        {
            "type": "Feature",
            "properties": {
                "ID": 34071,
                "DateCreated": "2023-03-15",
                "DateUpdated": "2023-03-15",
                "DateExtractedfromSource": null,
                "Sector": "Waste Management",
                "RecordOrigin": "Collected",
                "ReviewStatus": "Pending",
                "geo_txt": { "coordinates": [-104.189, 42.0479], "type": "Point" },
                "Facility": "Landfills",
                "DataSource": "GHGRP",
                "LocationExtractedfromSource": "TORRINGTON-WY",
                "City": "Torrington",
                "Country": "United States",
                "Link": "ghgdata.epa.gov/ghgp/main.do"
            },
            "geometry": { "type": "Point", "coordinates": [-104.189, 42.0479] }
        },
        {
            "type": "Feature",
            "properties": {
                "ID": 35067,
                "DateCreated": "2023-03-15",
                "DateUpdated": "2023-03-15",
                "DateExtractedfromSource": null,
                "Sector": "Waste Management",
                "RecordOrigin": "Collected",
                "ReviewStatus": "Pending",
                "geo_txt": { "coordinates": [-89.783418, 38.263429], "type": "Point" },
                "Facility": "Landfills",
                "DataSource": "GHGRP",
                "LocationExtractedfromSource": "MARISSA-IL",
                "City": "Lenzburg",
                "Country": "United States",
                "Link": "ghgdata.epa.gov/ghgp/main.do"
            },
            "geometry": { "type": "Point", "coordinates": [-89.783418, 38.263429] }
        },
        {
            "type": "Feature",
            "properties": {
                "ID": 35232,
                "DateCreated": "2023-03-15",
                "DateUpdated": "2023-03-15",
                "DateExtractedfromSource": null,
                "Sector": "Waste Management",
                "RecordOrigin": "Collected",
                "ReviewStatus": "Pending",
                "geo_txt": { "coordinates": [-94.89796, 42.07703], "type": "Point" },
                "Facility": "Landfills",
                "DataSource": "GHGRP",
                "LocationExtractedfromSource": "CARROLL-IA",
                "City": "Carroll",
                "Country": "United States",
                "Link": "ghgdata.epa.gov/ghgp/main.do"
            },
            "geometry": { "type": "Point", "coordinates": [-94.89796, 42.07703] }
        },
        {
            "type": "Feature",
            "properties": {
                "ID": 35229,
                "DateCreated": "2023-03-15",
                "DateUpdated": "2023-03-15",
                "DateExtractedfromSource": null,
                "Sector": "Waste Management",
                "RecordOrigin": "Collected",
                "ReviewStatus": "Pending",
                "geo_txt": { "coordinates": [-94.816806, 35.415306], "type": "Point" },
                "Facility": "Landfills",
                "DataSource": "GHGRP",
                "LocationExtractedfromSource": "Gans-OK",
                "City": "Sallisaw",
                "Country": "United States",
                "Link": "ghgdata.epa.gov/ghgp/main.do"
            },
            "geometry": { "type": "Point", "coordinates": [-94.816806, 35.415306] }
        },
        {
            "type": "Feature",
            "properties": {
                "ID": 34243,
                "DateCreated": "2023-03-15",
                "DateUpdated": "2023-03-15",
                "DateExtractedfromSource": null,
                "Sector": "Waste Management",
                "RecordOrigin": "Collected",
                "ReviewStatus": "Pending",
                "geo_txt": { "coordinates": [-121.1356, 45.55786], "type": "Point" },
                "Facility": "Landfills",
                "DataSource": "GHGRP",
                "LocationExtractedfromSource": "THE DALLES-OR",
                "City": "The Dalles",
                "Country": "United States",
                "Link": "ghgdata.epa.gov/ghgp/main.do"
            },
            "geometry": { "type": "Point", "coordinates": [-121.1356, 45.55786] }
        },
        {
            "type": "Feature",
            "properties": {
                "ID": 34069,
                "DateCreated": "2023-03-15",
                "DateUpdated": "2023-03-15",
                "DateExtractedfromSource": null,
                "Sector": "Waste Management",
                "RecordOrigin": "Collected",
                "ReviewStatus": "Pending",
                "geo_txt": { "coordinates": [-103.245506, 34.390327], "type": "Point" },
                "Facility": "Landfills",
                "DataSource": "GHGRP",
                "LocationExtractedfromSource": "CLOVIS-NM",
                "City": "Clovis",
                "Country": "United States",
                "Link": "ghgdata.epa.gov/ghgp/main.do"
            },
            "geometry": { "type": "Point", "coordinates": [-103.245506, 34.390327] }
        },
        {
            "type": "Feature",
            "properties": {
                "ID": 34891,
                "DateCreated": "2023-03-15",
                "DateUpdated": "2023-03-15",
                "DateExtractedfromSource": null,
                "Sector": "Waste Management",
                "RecordOrigin": "Collected",
                "ReviewStatus": "Pending",
                "geo_txt": { "coordinates": [-85.876802, 40.792359], "type": "Point" },
                "Facility": "Landfills",
                "DataSource": "GHGRP",
                "LocationExtractedfromSource": "WABASH-IN",
                "City": "Wabash",
                "Country": "United States",
                "Link": "ghgdata.epa.gov/ghgp/main.do"
            },
            "geometry": { "type": "Point", "coordinates": [-85.876802, 40.792359] }
        },
        {
            "type": "Feature",
            "properties": {
                "ID": 35173,
                "DateCreated": "2023-03-15",
                "DateUpdated": "2023-03-15",
                "DateExtractedfromSource": null,
                "Sector": "Waste Management",
                "RecordOrigin": "Collected",
                "ReviewStatus": "Pending",
                "geo_txt": { "coordinates": [-93.173636, 31.905326], "type": "Point" },
                "Facility": "Landfills",
                "DataSource": "GHGRP",
                "LocationExtractedfromSource": "CAMPTI-LA",
                "City": "Campti",
                "Country": "United States",
                "Link": "ghgdata.epa.gov/ghgp/main.do"
            },
            "geometry": { "type": "Point", "coordinates": [-93.173636, 31.905326] }
        },
        {
            "type": "Feature",
            "properties": {
                "ID": 34405,
                "DateCreated": "2023-03-15",
                "DateUpdated": "2023-03-15",
                "DateExtractedfromSource": null,
                "Sector": "Waste Management",
                "RecordOrigin": "Collected",
                "ReviewStatus": "Pending",
                "geo_txt": { "coordinates": [-75.303509, 40.622025], "type": "Point" },
                "Facility": "Landfills",
                "DataSource": "GHGRP",
                "LocationExtractedfromSource": "BETHLEHEM-PA",
                "City": "Hellertown",
                "Country": "United States",
                "Link": "ghgdata.epa.gov/ghgp/main.do"
            },
            "geometry": { "type": "Point", "coordinates": [-75.303509, 40.622025] }
        },
        {
            "type": "Feature",
            "properties": {
                "ID": 21611,
                "DateCreated": "2023-03-15",
                "DateUpdated": "2023-03-15",
                "DateExtractedfromSource": null,
                "Sector": "Waste Management",
                "RecordOrigin": "Collected",
                "ReviewStatus": "Pending",
                "geo_txt": { "coordinates": [-104.9335, 39.5636], "type": "Point" },
                "Facility": "Landfills",
                "DataSource": "GHGRP",
                "LocationExtractedfromSource": "LITTLETON-CO",
                "City": "Littleton",
                "Country": "United States",
                "Link": "ghgdata.epa.gov/ghgp/main.do"
            },
            "geometry": { "type": "Point", "coordinates": [-104.9335, 39.5636] }
        },
        {
            "type": "Feature",
            "properties": {
                "ID": 34744,
                "DateCreated": "2023-03-15",
                "DateUpdated": "2023-03-15",
                "DateExtractedfromSource": null,
                "Sector": "Waste Management",
                "RecordOrigin": "Collected",
                "ReviewStatus": "Pending",
                "geo_txt": { "coordinates": [-83.29983, 36.15494], "type": "Point" },
                "Facility": "Landfills",
                "DataSource": "GHGRP",
                "LocationExtractedfromSource": "Morristown-TN",
                "City": "Morristown",
                "Country": "United States",
                "Link": "ghgdata.epa.gov/ghgp/main.do"
            },
            "geometry": { "type": "Point", "coordinates": [-83.29983, 36.15494] }
        },
        {
            "type": "Feature",
            "properties": {
                "ID": 34057,
                "DateCreated": "2023-03-15",
                "DateUpdated": "2023-03-15",
                "DateExtractedfromSource": null,
                "Sector": "Waste Management",
                "RecordOrigin": "Collected",
                "ReviewStatus": "Pending",
                "geo_txt": { "coordinates": [-101.092338, 47.972493], "type": "Point" },
                "Facility": "Landfills",
                "DataSource": "GHGRP",
                "LocationExtractedfromSource": "Sawyer-ND",
                "City": "Sawyer",
                "Country": "United States",
                "Link": "ghgdata.epa.gov/ghgp/main.do"
            },
            "geometry": { "type": "Point", "coordinates": [-101.092338, 47.972493] }
        },
        {
            "type": "Feature",
            "properties": {
                "ID": 23396,
                "DateCreated": "2023-03-15",
                "DateUpdated": "2023-03-15",
                "DateExtractedfromSource": null,
                "Sector": "Waste Management",
                "RecordOrigin": "Collected",
                "ReviewStatus": "Pending",
                "geo_txt": { "coordinates": [-89.9412, 36.832771], "type": "Point" },
                "Facility": "Landfills",
                "DataSource": "GHGRP",
                "LocationExtractedfromSource": "DEXTER-MO",
                "City": "Dexter",
                "Country": "United States",
                "Link": "ghgdata.epa.gov/ghgp/main.do"
            },
            "geometry": { "type": "Point", "coordinates": [-89.9412, 36.832771] }
        },
        {
            "type": "Feature",
            "properties": {
                "ID": 35363,
                "DateCreated": "2023-03-15",
                "DateUpdated": "2023-03-15",
                "DateExtractedfromSource": null,
                "Sector": "Waste Management",
                "RecordOrigin": "Collected",
                "ReviewStatus": "Pending",
                "geo_txt": { "coordinates": [-98.7054, 38.4082], "type": "Point" },
                "Facility": "Landfills",
                "DataSource": "GHGRP",
                "LocationExtractedfromSource": "GREAT BEND-KS",
                "City": "Great Bend",
                "Country": "United States",
                "Link": "ghgdata.epa.gov/ghgp/main.do"
            },
            "geometry": { "type": "Point", "coordinates": [-98.7054, 38.4082] }
        },
        {
            "type": "Feature",
            "properties": {
                "ID": 34691,
                "DateCreated": "2023-03-15",
                "DateUpdated": "2023-03-15",
                "DateExtractedfromSource": null,
                "Sector": "Waste Management",
                "RecordOrigin": "Collected",
                "ReviewStatus": "Pending",
                "geo_txt": { "coordinates": [-82.07752, 34.192921], "type": "Point" },
                "Facility": "Landfills",
                "DataSource": "GHGRP",
                "LocationExtractedfromSource": "Greenwood-SC",
                "City": "Ninety Six",
                "Country": "United States",
                "Link": "ghgdata.epa.gov/ghgp/main.do"
            },
            "geometry": { "type": "Point", "coordinates": [-82.07752, 34.192921] }
        },
        {
            "type": "Feature",
            "properties": {
                "ID": 23325,
                "DateCreated": "2023-03-15",
                "DateUpdated": "2023-03-15",
                "DateExtractedfromSource": null,
                "Sector": "Waste Management",
                "RecordOrigin": "Collected",
                "ReviewStatus": "Pending",
                "geo_txt": { "coordinates": [-88.906399, 43.95997], "type": "Point" },
                "Facility": "Landfills",
                "DataSource": "GHGRP",
                "LocationExtractedfromSource": "BERLIN-WI",
                "City": "Berlin",
                "Country": "United States",
                "Link": "ghgdata.epa.gov/ghgp/main.do"
            },
            "geometry": { "type": "Point", "coordinates": [-88.906399, 43.95997] }
        },
        {
            "type": "Feature",
            "properties": {
                "ID": 34829,
                "DateCreated": "2023-03-15",
                "DateUpdated": "2023-03-15",
                "DateExtractedfromSource": null,
                "Sector": "Waste Management",
                "RecordOrigin": "Collected",
                "ReviewStatus": "Pending",
                "geo_txt": { "coordinates": [-84.54464, 38.352264], "type": "Point" },
                "Facility": "Landfills",
                "DataSource": "GHGRP",
                "LocationExtractedfromSource": "Georgetown-KY",
                "City": "Sadieville",
                "Country": "United States",
                "Link": "ghgdata.epa.gov/ghgp/main.do"
            },
            "geometry": { "type": "Point", "coordinates": [-84.54464, 38.352264] }
        },
        {
            "type": "Feature",
            "properties": {
                "ID": 35025,
                "DateCreated": "2023-03-15",
                "DateUpdated": "2023-03-15",
                "DateExtractedfromSource": null,
                "Sector": "Waste Management",
                "RecordOrigin": "Collected",
                "ReviewStatus": "Pending",
                "geo_txt": { "coordinates": [-88.54345, 44.1049], "type": "Point" },
                "Facility": "Landfills",
                "DataSource": "GHGRP",
                "LocationExtractedfromSource": "Vinland-WI",
                "City": "Oshkosh",
                "Country": "United States",
                "Link": "ghgdata.epa.gov/ghgp/main.do"
            },
            "geometry": { "type": "Point", "coordinates": [-88.54345, 44.1049] }
        },
        {
            "type": "Feature",
            "properties": {
                "ID": 34916,
                "DateCreated": "2023-03-15",
                "DateUpdated": "2023-03-15",
                "DateExtractedfromSource": null,
                "Sector": "Waste Management",
                "RecordOrigin": "Collected",
                "ReviewStatus": "Pending",
                "geo_txt": { "coordinates": [-86.5201, 33.605845], "type": "Point" },
                "Facility": "Landfills",
                "DataSource": "GHGRP",
                "LocationExtractedfromSource": "MOODY-AL",
                "City": "Moody",
                "Country": "United States",
                "Link": "ghgdata.epa.gov/ghgp/main.do"
            },
            "geometry": { "type": "Point", "coordinates": [-86.5201, 33.605845] }
        },
        {
            "type": "Feature",
            "properties": {
                "ID": 34216,
                "DateCreated": "2023-03-15",
                "DateUpdated": "2023-03-15",
                "DateExtractedfromSource": null,
                "Sector": "Waste Management",
                "RecordOrigin": "Collected",
                "ReviewStatus": "Pending",
                "geo_txt": { "coordinates": [-119.39476, 36.38797], "type": "Point" },
                "Facility": "Landfills",
                "DataSource": "GHGRP",
                "LocationExtractedfromSource": "Visalia-CA",
                "City": "Goshen",
                "Country": "United States",
                "Link": "ghgdata.epa.gov/ghgp/main.do"
            },
            "geometry": { "type": "Point", "coordinates": [-119.39476, 36.38797] }
        },
        {
            "type": "Feature",
            "properties": {
                "ID": 34517,
                "DateCreated": "2023-03-15",
                "DateUpdated": "2023-03-15",
                "DateExtractedfromSource": null,
                "Sector": "Waste Management",
                "RecordOrigin": "Collected",
                "ReviewStatus": "Pending",
                "geo_txt": { "coordinates": [-78.499515, 42.581913], "type": "Point" },
                "Facility": "Landfills",
                "DataSource": "GHGRP",
                "LocationExtractedfromSource": "CHAFFEE-NY",
                "City": "Chaffee",
                "Country": "United States",
                "Link": "ghgdata.epa.gov/ghgp/main.do"
            },
            "geometry": { "type": "Point", "coordinates": [-78.499515, 42.581913] }
        },
        {
            "type": "Feature",
            "properties": {
                "ID": 34910,
                "DateCreated": "2023-03-15",
                "DateUpdated": "2023-03-15",
                "DateExtractedfromSource": null,
                "Sector": "Waste Management",
                "RecordOrigin": "Collected",
                "ReviewStatus": "Pending",
                "geo_txt": { "coordinates": [-86.3583, 33.3278], "type": "Point" },
                "Facility": "Landfills",
                "DataSource": "GHGRP",
                "LocationExtractedfromSource": "COOSA PINES-AL",
                "City": "Childersburg",
                "Country": "United States",
                "Link": "ghgdata.epa.gov/ghgp/main.do"
            },
            "geometry": { "type": "Point", "coordinates": [-86.3583, 33.3278] }
        },
        {
            "type": "Feature",
            "properties": {
                "ID": 34337,
                "DateCreated": "2023-03-15",
                "DateUpdated": "2023-03-15",
                "DateExtractedfromSource": null,
                "Sector": "Waste Management",
                "RecordOrigin": "Collected",
                "ReviewStatus": "Pending",
                "geo_txt": { "coordinates": [-70.583757, 41.731171], "type": "Point" },
                "Facility": "Landfills",
                "DataSource": "GHGRP",
                "LocationExtractedfromSource": "BOURNE-MA",
                "City": "Buzzards Bay",
                "Country": "United States",
                "Link": "ghgdata.epa.gov/ghgp/main.do"
            },
            "geometry": { "type": "Point", "coordinates": [-70.583757, 41.731171] }
        },
        {
            "type": "Feature",
            "properties": {
                "ID": 35251,
                "DateCreated": "2023-03-15",
                "DateUpdated": "2023-03-15",
                "DateExtractedfromSource": null,
                "Sector": "Waste Management",
                "RecordOrigin": "Collected",
                "ReviewStatus": "Pending",
                "geo_txt": { "coordinates": [-95.425376, 30.31203], "type": "Point" },
                "Facility": "Landfills",
                "DataSource": "GHGRP",
                "LocationExtractedfromSource": "Conroe-TX",
                "City": "Conroe",
                "Country": "United States",
                "Link": "ghgdata.epa.gov/ghgp/main.do"
            },
            "geometry": { "type": "Point", "coordinates": [-95.425376, 30.31203] }
        },
        {
            "type": "Feature",
            "properties": {
                "ID": 34619,
                "DateCreated": "2023-03-15",
                "DateUpdated": "2023-03-15",
                "DateExtractedfromSource": null,
                "Sector": "Waste Management",
                "RecordOrigin": "Collected",
                "ReviewStatus": "Pending",
                "geo_txt": { "coordinates": [-80.779444, 34.105278], "type": "Point" },
                "Facility": "Landfills",
                "DataSource": "GHGRP",
                "LocationExtractedfromSource": "ELGIN-SC",
                "City": "Elgin",
                "Country": "United States",
                "Link": "ghgdata.epa.gov/ghgp/main.do"
            },
            "geometry": { "type": "Point", "coordinates": [-80.779444, 34.105278] }
        },
        {
            "type": "Feature",
            "properties": {
                "ID": 34765,
                "DateCreated": "2023-03-15",
                "DateUpdated": "2023-03-15",
                "DateExtractedfromSource": null,
                "Sector": "Waste Management",
                "RecordOrigin": "Collected",
                "ReviewStatus": "Pending",
                "geo_txt": { "coordinates": [-83.618969, 32.822514], "type": "Point" },
                "Facility": "Landfills",
                "DataSource": "GHGRP",
                "LocationExtractedfromSource": "MACON-GA",
                "City": "Macon",
                "Country": "United States",
                "Link": "ghgdata.epa.gov/ghgp/main.do"
            },
            "geometry": { "type": "Point", "coordinates": [-83.618969, 32.822514] }
        },
        {
            "type": "Feature",
            "properties": {
                "ID": 34735,
                "DateCreated": "2023-03-15",
                "DateUpdated": "2023-03-15",
                "DateExtractedfromSource": null,
                "Sector": "Waste Management",
                "RecordOrigin": "Collected",
                "ReviewStatus": "Pending",
                "geo_txt": { "coordinates": [-82.996087, 35.661943], "type": "Point" },
                "Facility": "Landfills",
                "DataSource": "GHGRP",
                "LocationExtractedfromSource": "waynesville-NC",
                "City": "Clyde",
                "Country": "United States",
                "Link": "ghgdata.epa.gov/ghgp/main.do"
            },
            "geometry": { "type": "Point", "coordinates": [-82.996087, 35.661943] }
        },
        {
            "type": "Feature",
            "properties": {
                "ID": 34229,
                "DateCreated": "2023-03-15",
                "DateUpdated": "2023-03-15",
                "DateExtractedfromSource": null,
                "Sector": "Waste Management",
                "RecordOrigin": "Collected",
                "ReviewStatus": "Pending",
                "geo_txt": { "coordinates": [-120.1382, 36.6659], "type": "Point" },
                "Facility": "Landfills",
                "DataSource": "GHGRP",
                "LocationExtractedfromSource": "KERMAN-CA",
                "City": "San Joaquin",
                "Country": "United States",
                "Link": "ghgdata.epa.gov/ghgp/main.do"
            },
            "geometry": { "type": "Point", "coordinates": [-120.1382, 36.6659] }
        },
        {
            "type": "Feature",
            "properties": {
                "ID": 34142,
                "DateCreated": "2023-03-15",
                "DateUpdated": "2023-03-15",
                "DateExtractedfromSource": null,
                "Sector": "Waste Management",
                "RecordOrigin": "Collected",
                "ReviewStatus": "Pending",
                "geo_txt": { "coordinates": [-112.365286, 42.787276], "type": "Point" },
                "Facility": "Landfills",
                "DataSource": "GHGRP",
                "LocationExtractedfromSource": "POCATELLO-ID",
                "City": "Pocatello",
                "Country": "United States",
                "Link": "ghgdata.epa.gov/ghgp/main.do"
            },
            "geometry": { "type": "Point", "coordinates": [-112.365286, 42.787276] }
        },
        {
            "type": "Feature",
            "properties": {
                "ID": 34448,
                "DateCreated": "2023-03-15",
                "DateUpdated": "2023-03-15",
                "DateExtractedfromSource": null,
                "Sector": "Waste Management",
                "RecordOrigin": "Collected",
                "ReviewStatus": "Pending",
                "geo_txt": { "coordinates": [-76.676523, 39.085577], "type": "Point" },
                "Facility": "Landfills",
                "DataSource": "GHGRP",
                "LocationExtractedfromSource": "SEVERN-MD",
                "City": "Odenton",
                "Country": "United States",
                "Link": "ghgdata.epa.gov/ghgp/main.do"
            },
            "geometry": { "type": "Point", "coordinates": [-76.676523, 39.085577] }
        },
        {
            "type": "Feature",
            "properties": {
                "ID": 34884,
                "DateCreated": "2023-03-15",
                "DateUpdated": "2023-03-15",
                "DateExtractedfromSource": null,
                "Sector": "Waste Management",
                "RecordOrigin": "Collected",
                "ReviewStatus": "Pending",
                "geo_txt": { "coordinates": [-85.787834, 34.864542], "type": "Point" },
                "Facility": "Landfills",
                "DataSource": "GHGRP",
                "LocationExtractedfromSource": "STEVENSON-AL",
                "City": "Stevenson",
                "Country": "United States",
                "Link": "ghgdata.epa.gov/ghgp/main.do"
            },
            "geometry": { "type": "Point", "coordinates": [-85.787834, 34.864542] }
        },
        {
            "type": "Feature",
            "properties": {
                "ID": 35349,
                "DateCreated": "2023-03-15",
                "DateUpdated": "2023-03-15",
                "DateExtractedfromSource": null,
                "Sector": "Waste Management",
                "RecordOrigin": "Collected",
                "ReviewStatus": "Pending",
                "geo_txt": { "coordinates": [-97.966442, 37.379616], "type": "Point" },
                "Facility": "Landfills",
                "DataSource": "GHGRP",
                "LocationExtractedfromSource": "HARPER-KS",
                "City": "Harper",
                "Country": "United States",
                "Link": "ghgdata.epa.gov/ghgp/main.do"
            },
            "geometry": { "type": "Point", "coordinates": [-97.966442, 37.379616] }
        },
        {
            "type": "Feature",
            "properties": {
                "ID": 34399,
                "DateCreated": "2023-03-15",
                "DateUpdated": "2023-03-15",
                "DateExtractedfromSource": null,
                "Sector": "Waste Management",
                "RecordOrigin": "Collected",
                "ReviewStatus": "Pending",
                "geo_txt": { "coordinates": [-75.0417, 39.9889], "type": "Point" },
                "Facility": "Landfills",
                "DataSource": "GHGRP",
                "LocationExtractedfromSource": "PENNSAUKEN-NJ",
                "City": "Palmyra",
                "Country": "United States",
                "Link": "ghgdata.epa.gov/ghgp/main.do"
            },
            "geometry": { "type": "Point", "coordinates": [-75.0417, 39.9889] }
        },
        {
            "type": "Feature",
            "properties": {
                "ID": 23775,
                "DateCreated": "2023-03-15",
                "DateUpdated": "2023-03-15",
                "DateExtractedfromSource": null,
                "Sector": "Waste Management",
                "RecordOrigin": "Collected",
                "ReviewStatus": "Pending",
                "geo_txt": { "coordinates": [-97.859182, 36.36171], "type": "Point" },
                "Facility": "Landfills",
                "DataSource": "GHGRP",
                "LocationExtractedfromSource": "ENID-OK",
                "City": "Enid",
                "Country": "United States",
                "Link": "ghgdata.epa.gov/ghgp/main.do"
            },
            "geometry": { "type": "Point", "coordinates": [-97.859182, 36.36171] }
        },
        {
            "type": "Feature",
            "properties": {
                "ID": 35034,
                "DateCreated": "2023-03-15",
                "DateUpdated": "2023-03-15",
                "DateExtractedfromSource": null,
                "Sector": "Waste Management",
                "RecordOrigin": "Collected",
                "ReviewStatus": "Pending",
                "geo_txt": { "coordinates": [-88.845504, 34.923149], "type": "Point" },
                "Facility": "Landfills",
                "DataSource": "GHGRP",
                "LocationExtractedfromSource": "WALNUT-MS",
                "City": "Walnut",
                "Country": "United States",
                "Link": "ghgdata.epa.gov/ghgp/main.do"
            },
            "geometry": { "type": "Point", "coordinates": [-88.845504, 34.923149] }
        },
        {
            "type": "Feature",
            "properties": {
                "ID": 23087,
                "DateCreated": "2023-03-15",
                "DateUpdated": "2023-03-15",
                "DateExtractedfromSource": null,
                "Sector": "Waste Management",
                "RecordOrigin": "Collected",
                "ReviewStatus": "Pending",
                "geo_txt": { "coordinates": [-85.209434, 45.2474], "type": "Point" },
                "Facility": "Landfills",
                "DataSource": "GHGRP",
                "LocationExtractedfromSource": "EAST JORDAN-MI",
                "City": "Charlevoix",
                "Country": "United States",
                "Link": "ghgdata.epa.gov/ghgp/main.do"
            },
            "geometry": { "type": "Point", "coordinates": [-85.209434, 45.2474] }
        },
        {
            "type": "Feature",
            "properties": {
                "ID": 35306,
                "DateCreated": "2023-03-15",
                "DateUpdated": "2023-03-15",
                "DateExtractedfromSource": null,
                "Sector": "Waste Management",
                "RecordOrigin": "Collected",
                "ReviewStatus": "Pending",
                "geo_txt": { "coordinates": [-97.04443, 34.19667], "type": "Point" },
                "Facility": "Landfills",
                "DataSource": "GHGRP",
                "LocationExtractedfromSource": "Ardmore-OK",
                "City": "Ardmore",
                "Country": "United States",
                "Link": "ghgdata.epa.gov/ghgp/main.do"
            },
            "geometry": { "type": "Point", "coordinates": [-97.04443, 34.19667] }
        },
        {
            "type": "Feature",
            "properties": {
                "ID": 34353,
                "DateCreated": "2023-03-15",
                "DateUpdated": "2023-03-15",
                "DateExtractedfromSource": null,
                "Sector": "Waste Management",
                "RecordOrigin": "Collected",
                "ReviewStatus": "Pending",
                "geo_txt": { "coordinates": [-71.845589, 42.533852], "type": "Point" },
                "Facility": "Landfills",
                "DataSource": "GHGRP",
                "LocationExtractedfromSource": "WESTMINSTER-MA",
                "City": "Westminster",
                "Country": "United States",
                "Link": "ghgdata.epa.gov/ghgp/main.do"
            },
            "geometry": { "type": "Point", "coordinates": [-71.845589, 42.533852] }
        },
        {
            "type": "Feature",
            "properties": {
                "ID": 34179,
                "DateCreated": "2023-03-15",
                "DateUpdated": "2023-03-15",
                "DateExtractedfromSource": null,
                "Sector": "Waste Management",
                "RecordOrigin": "Collected",
                "ReviewStatus": "Pending",
                "geo_txt": { "coordinates": [-117.17838, 33.10357], "type": "Point" },
                "Facility": "Landfills",
                "DataSource": "GHGRP",
                "LocationExtractedfromSource": "SAN MARCOS-CA",
                "City": "San Marcos",
                "Country": "United States",
                "Link": "ghgdata.epa.gov/ghgp/main.do"
            },
            "geometry": { "type": "Point", "coordinates": [-117.17838, 33.10357] }
        },
        {
            "type": "Feature",
            "properties": {
                "ID": 35226,
                "DateCreated": "2023-03-15",
                "DateUpdated": "2023-03-15",
                "DateExtractedfromSource": null,
                "Sector": "Waste Management",
                "RecordOrigin": "Collected",
                "ReviewStatus": "Pending",
                "geo_txt": { "coordinates": [-94.707114, 32.118437], "type": "Point" },
                "Facility": "Landfills",
                "DataSource": "GHGRP",
                "LocationExtractedfromSource": "Henderson-TX",
                "City": "Henderson",
                "Country": "United States",
                "Link": "ghgdata.epa.gov/ghgp/main.do"
            },
            "geometry": { "type": "Point", "coordinates": [-94.707114, 32.118437] }
        },
        {
            "type": "Feature",
            "properties": {
                "ID": 21768,
                "DateCreated": "2023-03-15",
                "DateUpdated": "2023-03-15",
                "DateExtractedfromSource": null,
                "Sector": "Waste Management",
                "RecordOrigin": "Collected",
                "ReviewStatus": "Pending",
                "geo_txt": { "coordinates": [-114.61613, 32.5689], "type": "Point" },
                "Facility": "Landfills",
                "DataSource": "GHGRP",
                "LocationExtractedfromSource": "Yuma-AZ",
                "City": "Somerton",
                "Country": "United States",
                "Link": "ghgdata.epa.gov/ghgp/main.do"
            },
            "geometry": { "type": "Point", "coordinates": [-114.61613, 32.5689] }
        },
        {
            "type": "Feature",
            "properties": {
                "ID": 34244,
                "DateCreated": "2023-03-15",
                "DateUpdated": "2023-03-15",
                "DateExtractedfromSource": null,
                "Sector": "Waste Management",
                "RecordOrigin": "Collected",
                "ReviewStatus": "Pending",
                "geo_txt": { "coordinates": [-121.13969, 37.39719], "type": "Point" },
                "Facility": "Landfills",
                "DataSource": "GHGRP",
                "LocationExtractedfromSource": "CROWS LANDING-CA",
                "City": "Crows Landing",
                "Country": "United States",
                "Link": "ghgdata.epa.gov/ghgp/main.do"
            },
            "geometry": { "type": "Point", "coordinates": [-121.13969, 37.39719] }
        },
        {
            "type": "Feature",
            "properties": {
                "ID": 35313,
                "DateCreated": "2023-03-15",
                "DateUpdated": "2023-03-15",
                "DateExtractedfromSource": null,
                "Sector": "Waste Management",
                "RecordOrigin": "Collected",
                "ReviewStatus": "Pending",
                "geo_txt": { "coordinates": [-97.10376, 32.80776], "type": "Point" },
                "Facility": "Landfills",
                "DataSource": "GHGRP",
                "LocationExtractedfromSource": "Euless-TX",
                "City": "Euless",
                "Country": "United States",
                "Link": "ghgdata.epa.gov/ghgp/main.do"
            },
            "geometry": { "type": "Point", "coordinates": [-97.10376, 32.80776] }
        },
        {
            "type": "Feature",
            "properties": {
                "ID": 35295,
                "DateCreated": "2023-03-15",
                "DateUpdated": "2023-03-15",
                "DateExtractedfromSource": null,
                "Sector": "Waste Management",
                "RecordOrigin": "Collected",
                "ReviewStatus": "Pending",
                "geo_txt": { "coordinates": [-96.89577, 37.76633], "type": "Point" },
                "Facility": "Landfills",
                "DataSource": "GHGRP",
                "LocationExtractedfromSource": "EL DORADO-KS",
                "City": "El Dorado",
                "Country": "United States",
                "Link": "ghgdata.epa.gov/ghgp/main.do"
            },
            "geometry": { "type": "Point", "coordinates": [-96.89577, 37.76633] }
        },
        {
            "type": "Feature",
            "properties": {
                "ID": 34643,
                "DateCreated": "2023-03-15",
                "DateUpdated": "2023-03-15",
                "DateExtractedfromSource": null,
                "Sector": "Waste Management",
                "RecordOrigin": "Collected",
                "ReviewStatus": "Pending",
                "geo_txt": { "coordinates": [-81.2022, 34.9733], "type": "Point" },
                "Facility": "Landfills",
                "DataSource": "GHGRP",
                "LocationExtractedfromSource": "YORK-SC",
                "City": "Rock Hill",
                "Country": "United States",
                "Link": "ghgdata.epa.gov/ghgp/main.do"
            },
            "geometry": { "type": "Point", "coordinates": [-81.2022, 34.9733] }
        },
        {
            "type": "Feature",
            "properties": {
                "ID": 35303,
                "DateCreated": "2023-03-15",
                "DateUpdated": "2023-03-15",
                "DateExtractedfromSource": null,
                "Sector": "Waste Management",
                "RecordOrigin": "Collected",
                "ReviewStatus": "Pending",
                "geo_txt": { "coordinates": [-97.006111, 47.925833], "type": "Point" },
                "Facility": "Landfills",
                "DataSource": "GHGRP",
                "LocationExtractedfromSource": "EAST GRAND FORKS-MN",
                "City": "East Grand Forks",
                "Country": "United States",
                "Link": "ghgdata.epa.gov/ghgp/main.do"
            },
            "geometry": { "type": "Point", "coordinates": [-97.006111, 47.925833] }
        },
        {
            "type": "Feature",
            "properties": {
                "ID": 34871,
                "DateCreated": "2023-03-15",
                "DateUpdated": "2023-03-15",
                "DateExtractedfromSource": null,
                "Sector": "Waste Management",
                "RecordOrigin": "Collected",
                "ReviewStatus": "Pending",
                "geo_txt": { "coordinates": [-85.427, 30.928], "type": "Point" },
                "Facility": "Landfills",
                "DataSource": "GHGRP",
                "LocationExtractedfromSource": "CAMPBELLTON-FL",
                "City": "Campbellton",
                "Country": "United States",
                "Link": "ghgdata.epa.gov/ghgp/main.do"
            },
            "geometry": { "type": "Point", "coordinates": [-85.427, 30.928] }
        },
        {
            "type": "Feature",
            "properties": {
                "ID": 35044,
                "DateCreated": "2023-03-15",
                "DateUpdated": "2023-03-15",
                "DateExtractedfromSource": null,
                "Sector": "Waste Management",
                "RecordOrigin": "Collected",
                "ReviewStatus": "Pending",
                "geo_txt": { "coordinates": [-89.045353, 31.244429], "type": "Point" },
                "Facility": "Landfills",
                "DataSource": "GHGRP",
                "LocationExtractedfromSource": "NEW AUGUSTA-MS",
                "City": "New Augusta",
                "Country": "United States",
                "Link": "ghgdata.epa.gov/ghgp/main.do"
            },
            "geometry": { "type": "Point", "coordinates": [-89.045353, 31.244429] }
        },
        {
            "type": "Feature",
            "properties": {
                "ID": 34599,
                "DateCreated": "2023-03-15",
                "DateUpdated": "2023-03-15",
                "DateExtractedfromSource": null,
                "Sector": "Waste Management",
                "RecordOrigin": "Collected",
                "ReviewStatus": "Pending",
                "geo_txt": { "coordinates": [-80.34769, 25.547222], "type": "Point" },
                "Facility": "Landfills",
                "DataSource": "GHGRP",
                "LocationExtractedfromSource": "GOULDS-FL",
                "City": "Miami",
                "Country": "United States",
                "Link": "ghgdata.epa.gov/ghgp/main.do"
            },
            "geometry": { "type": "Point", "coordinates": [-80.34769, 25.547222] }
        },
        {
            "type": "Feature",
            "properties": {
                "ID": 22915,
                "DateCreated": "2023-03-15",
                "DateUpdated": "2023-03-15",
                "DateExtractedfromSource": null,
                "Sector": "Waste Management",
                "RecordOrigin": "Collected",
                "ReviewStatus": "Pending",
                "geo_txt": { "coordinates": [-83.212122, 42.156323], "type": "Point" },
                "Facility": "Landfills",
                "DataSource": "GHGRP",
                "LocationExtractedfromSource": "RIVERVIEW-MI",
                "City": "Trenton",
                "Country": "United States",
                "Link": "ghgdata.epa.gov/ghgp/main.do"
            },
            "geometry": { "type": "Point", "coordinates": [-83.212122, 42.156323] }
        },
        {
            "type": "Feature",
            "properties": {
                "ID": 35014,
                "DateCreated": "2023-03-15",
                "DateUpdated": "2023-03-15",
                "DateExtractedfromSource": null,
                "Sector": "Waste Management",
                "RecordOrigin": "Collected",
                "ReviewStatus": "Pending",
                "geo_txt": { "coordinates": [-88.308421, 44.269643], "type": "Point" },
                "Facility": "Landfills",
                "DataSource": "GHGRP",
                "LocationExtractedfromSource": "COMBINED LOCKS-WI",
                "City": "Combined Locks",
                "Country": "United States",
                "Link": "ghgdata.epa.gov/ghgp/main.do"
            },
            "geometry": { "type": "Point", "coordinates": [-88.308421, 44.269643] }
        },
        {
            "type": "Feature",
            "properties": {
                "ID": 34333,
                "DateCreated": "2023-03-15",
                "DateUpdated": "2023-03-15",
                "DateExtractedfromSource": null,
                "Sector": "Waste Management",
                "RecordOrigin": "Collected",
                "ReviewStatus": "Pending",
                "geo_txt": { "coordinates": [-69.6472, 44.7024], "type": "Point" },
                "Facility": "Landfills",
                "DataSource": "GHGRP",
                "LocationExtractedfromSource": "SKOWHEGAN-ME",
                "City": "Hinckley",
                "Country": "United States",
                "Link": "ghgdata.epa.gov/ghgp/main.do"
            },
            "geometry": { "type": "Point", "coordinates": [-69.6472, 44.7024] }
        },
        {
            "type": "Feature",
            "properties": {
                "ID": 35111,
                "DateCreated": "2023-03-15",
                "DateUpdated": "2023-03-15",
                "DateExtractedfromSource": null,
                "Sector": "Waste Management",
                "RecordOrigin": "Collected",
                "ReviewStatus": "Pending",
                "geo_txt": { "coordinates": [-91.162154, 43.883285], "type": "Point" },
                "Facility": "Landfills",
                "DataSource": "GHGRP",
                "LocationExtractedfromSource": "LA CROSSE-WI",
                "City": "La Crosse",
                "Country": "United States",
                "Link": "ghgdata.epa.gov/ghgp/main.do"
            },
            "geometry": { "type": "Point", "coordinates": [-91.162154, 43.883285] }
        },
        {
            "type": "Feature",
            "properties": {
                "ID": 34370,
                "DateCreated": "2023-03-15",
                "DateUpdated": "2023-03-15",
                "DateExtractedfromSource": null,
                "Sector": "Waste Management",
                "RecordOrigin": "Collected",
                "ReviewStatus": "Pending",
                "geo_txt": { "coordinates": [-73.3961, 43.8914], "type": "Point" },
                "Facility": "Landfills",
                "DataSource": "GHGRP",
                "LocationExtractedfromSource": "TICONDEROGA-NY",
                "City": "Ticonderoga",
                "Country": "United States",
                "Link": "ghgdata.epa.gov/ghgp/main.do"
            },
            "geometry": { "type": "Point", "coordinates": [-73.3961, 43.8914] }
        },
        {
            "type": "Feature",
            "properties": {
                "ID": 34550,
                "DateCreated": "2023-03-15",
                "DateUpdated": "2023-03-15",
                "DateExtractedfromSource": null,
                "Sector": "Waste Management",
                "RecordOrigin": "Collected",
                "ReviewStatus": "Pending",
                "geo_txt": { "coordinates": [-79.303279, 33.364166], "type": "Point" },
                "Facility": "Landfills",
                "DataSource": "GHGRP",
                "LocationExtractedfromSource": "GEORGETOWN-SC",
                "City": "Georgetown",
                "Country": "United States",
                "Link": "ghgdata.epa.gov/ghgp/main.do"
            },
            "geometry": { "type": "Point", "coordinates": [-79.303279, 33.364166] }
        },
        {
            "type": "Feature",
            "properties": {
                "ID": 34487,
                "DateCreated": "2023-03-15",
                "DateUpdated": "2023-03-15",
                "DateExtractedfromSource": null,
                "Sector": "Waste Management",
                "RecordOrigin": "Collected",
                "ReviewStatus": "Pending",
                "geo_txt": { "coordinates": [-77.53781, 34.79804], "type": "Point" },
                "Facility": "Landfills",
                "DataSource": "GHGRP",
                "LocationExtractedfromSource": "JACKSONVILLE-NC",
                "City": "Richlands",
                "Country": "United States",
                "Link": "ghgdata.epa.gov/ghgp/main.do"
            },
            "geometry": { "type": "Point", "coordinates": [-77.53781, 34.79804] }
        },
        {
            "type": "Feature",
            "properties": {
                "ID": 34098,
                "DateCreated": "2023-03-15",
                "DateUpdated": "2023-03-15",
                "DateExtractedfromSource": null,
                "Sector": "Waste Management",
                "RecordOrigin": "Collected",
                "ReviewStatus": "Pending",
                "geo_txt": { "coordinates": [-107.035027, 40.479041], "type": "Point" },
                "Facility": "Landfills",
                "DataSource": "GHGRP",
                "LocationExtractedfromSource": "Milner-CO",
                "City": "Steamboat Springs",
                "Country": "United States",
                "Link": "ghgdata.epa.gov/ghgp/main.do"
            },
            "geometry": { "type": "Point", "coordinates": [-107.035027, 40.479041] }
        },
        {
            "type": "Feature",
            "properties": {
                "ID": 34815,
                "DateCreated": "2023-03-15",
                "DateUpdated": "2023-03-15",
                "DateExtractedfromSource": null,
                "Sector": "Waste Management",
                "RecordOrigin": "Collected",
                "ReviewStatus": "Pending",
                "geo_txt": { "coordinates": [-84.40818, 38.73555], "type": "Point" },
                "Facility": "Landfills",
                "DataSource": "GHGRP",
                "LocationExtractedfromSource": "BUTLER-KY",
                "City": "DeMossville",
                "Country": "United States",
                "Link": "ghgdata.epa.gov/ghgp/main.do"
            },
            "geometry": { "type": "Point", "coordinates": [-84.40818, 38.73555] }
        },
        {
            "type": "Feature",
            "properties": {
                "ID": 34432,
                "DateCreated": "2023-03-15",
                "DateUpdated": "2023-03-15",
                "DateExtractedfromSource": null,
                "Sector": "Waste Management",
                "RecordOrigin": "Collected",
                "ReviewStatus": "Pending",
                "geo_txt": { "coordinates": [-76.3397, 43.3476], "type": "Point" },
                "Facility": "Landfills",
                "DataSource": "GHGRP",
                "LocationExtractedfromSource": "FULTON-NY",
                "City": "Fulton",
                "Country": "United States",
                "Link": "ghgdata.epa.gov/ghgp/main.do"
            },
            "geometry": { "type": "Point", "coordinates": [-76.3397, 43.3476] }
        },
        {
            "type": "Feature",
            "properties": {
                "ID": 35051,
                "DateCreated": "2023-03-15",
                "DateUpdated": "2023-03-15",
                "DateExtractedfromSource": null,
                "Sector": "Waste Management",
                "RecordOrigin": "Collected",
                "ReviewStatus": "Pending",
                "geo_txt": { "coordinates": [-89.255, 43.045], "type": "Point" },
                "Facility": "Landfills",
                "DataSource": "GHGRP",
                "LocationExtractedfromSource": "MADISON-WI",
                "City": "Madison",
                "Country": "United States",
                "Link": "ghgdata.epa.gov/ghgp/main.do"
            },
            "geometry": { "type": "Point", "coordinates": [-89.255, 43.045] }
        },
        {
            "type": "Feature",
            "properties": {
                "ID": 35369,
                "DateCreated": "2023-03-15",
                "DateUpdated": "2023-03-15",
                "DateExtractedfromSource": null,
                "Sector": "Waste Management",
                "RecordOrigin": "Collected",
                "ReviewStatus": "Pending",
                "geo_txt": { "coordinates": [-99.751709, 40.946495], "type": "Point" },
                "Facility": "Landfills",
                "DataSource": "GHGRP",
                "LocationExtractedfromSource": "Lexington-NE",
                "City": "Lexington",
                "Country": "United States",
                "Link": "ghgdata.epa.gov/ghgp/main.do"
            },
            "geometry": { "type": "Point", "coordinates": [-99.751709, 40.946495] }
        },
        {
            "type": "Feature",
            "properties": {
                "ID": 34450,
                "DateCreated": "2023-03-15",
                "DateUpdated": "2023-03-15",
                "DateExtractedfromSource": null,
                "Sector": "Waste Management",
                "RecordOrigin": "Collected",
                "ReviewStatus": "Pending",
                "geo_txt": { "coordinates": [-76.7675, 37.6673], "type": "Point" },
                "Facility": "Landfills",
                "DataSource": "GHGRP",
                "LocationExtractedfromSource": "LITTLE PLYMOUTH-VA",
                "City": "Mascot",
                "Country": "United States",
                "Link": "ghgdata.epa.gov/ghgp/main.do"
            },
            "geometry": { "type": "Point", "coordinates": [-76.7675, 37.6673] }
        },
        {
            "type": "Feature",
            "properties": {
                "ID": 34924,
                "DateCreated": "2023-03-15",
                "DateUpdated": "2023-03-15",
                "DateExtractedfromSource": null,
                "Sector": "Waste Management",
                "RecordOrigin": "Collected",
                "ReviewStatus": "Pending",
                "geo_txt": { "coordinates": [-86.711856, 33.709435], "type": "Point" },
                "Facility": "Landfills",
                "DataSource": "GHGRP",
                "LocationExtractedfromSource": "Pinson-AL",
                "City": "Pinson",
                "Country": "United States",
                "Link": "ghgdata.epa.gov/ghgp/main.do"
            },
            "geometry": { "type": "Point", "coordinates": [-86.711856, 33.709435] }
        },
        {
            "type": "Feature",
            "properties": {
                "ID": 34386,
                "DateCreated": "2023-03-15",
                "DateUpdated": "2023-03-15",
                "DateExtractedfromSource": null,
                "Sector": "Waste Management",
                "RecordOrigin": "Collected",
                "ReviewStatus": "Pending",
                "geo_txt": { "coordinates": [-74.3862, 40.4735], "type": "Point" },
                "Facility": "Landfills",
                "DataSource": "GHGRP",
                "LocationExtractedfromSource": "East Brunswick-NJ",
                "City": "South River",
                "Country": "United States",
                "Link": "ghgdata.epa.gov/ghgp/main.do"
            },
            "geometry": { "type": "Point", "coordinates": [-74.3862, 40.4735] }
        },
        {
            "type": "Feature",
            "properties": {
                "ID": 34791,
                "DateCreated": "2023-03-15",
                "DateUpdated": "2023-03-15",
                "DateExtractedfromSource": null,
                "Sector": "Waste Management",
                "RecordOrigin": "Collected",
                "ReviewStatus": "Pending",
                "geo_txt": { "coordinates": [-84.05978, 35.73834], "type": "Point" },
                "Facility": "Landfills",
                "DataSource": "GHGRP",
                "LocationExtractedfromSource": "Friendsville-TN",
                "City": "Friendsville",
                "Country": "United States",
                "Link": "ghgdata.epa.gov/ghgp/main.do"
            },
            "geometry": { "type": "Point", "coordinates": [-84.05978, 35.73834] }
        },
        {
            "type": "Feature",
            "properties": {
                "ID": 35272,
                "DateCreated": "2023-03-15",
                "DateUpdated": "2023-03-15",
                "DateExtractedfromSource": null,
                "Sector": "Waste Management",
                "RecordOrigin": "Collected",
                "ReviewStatus": "Pending",
                "geo_txt": { "coordinates": [-96.46439, 29.575044], "type": "Point" },
                "Facility": "Landfills",
                "DataSource": "GHGRP",
                "LocationExtractedfromSource": "Altair-TX",
                "City": "Rock Island",
                "Country": "United States",
                "Link": "ghgdata.epa.gov/ghgp/main.do"
            },
            "geometry": { "type": "Point", "coordinates": [-96.46439, 29.575044] }
        },
        {
            "type": "Feature",
            "properties": {
                "ID": 34830,
                "DateCreated": "2023-03-15",
                "DateUpdated": "2023-03-15",
                "DateExtractedfromSource": null,
                "Sector": "Waste Management",
                "RecordOrigin": "Collected",
                "ReviewStatus": "Pending",
                "geo_txt": { "coordinates": [-84.56558, 40.45454], "type": "Point" },
                "Facility": "Landfills",
                "DataSource": "GHGRP",
                "LocationExtractedfromSource": "Celina-OH",
                "City": "Chickasaw",
                "Country": "United States",
                "Link": "ghgdata.epa.gov/ghgp/main.do"
            },
            "geometry": { "type": "Point", "coordinates": [-84.56558, 40.45454] }
        },
        {
            "type": "Feature",
            "properties": {
                "ID": 35143,
                "DateCreated": "2023-03-15",
                "DateUpdated": "2023-03-15",
                "DateExtractedfromSource": null,
                "Sector": "Waste Management",
                "RecordOrigin": "Collected",
                "ReviewStatus": "Pending",
                "geo_txt": { "coordinates": [-92.104583, 38.545526], "type": "Point" },
                "Facility": "Landfills",
                "DataSource": "GHGRP",
                "LocationExtractedfromSource": "JEFFERSON CITY-MO",
                "City": "Jefferson City",
                "Country": "United States",
                "Link": "ghgdata.epa.gov/ghgp/main.do"
            },
            "geometry": { "type": "Point", "coordinates": [-92.104583, 38.545526] }
        },
        {
            "type": "Feature",
            "properties": {
                "ID": 34756,
                "DateCreated": "2023-03-15",
                "DateUpdated": "2023-03-15",
                "DateExtractedfromSource": null,
                "Sector": "Waste Management",
                "RecordOrigin": "Collected",
                "ReviewStatus": "Pending",
                "geo_txt": { "coordinates": [-83.509247, 41.731819], "type": "Point" },
                "Facility": "Landfills",
                "DataSource": "GHGRP",
                "LocationExtractedfromSource": "ERIE-MI",
                "City": "Toledo",
                "Country": "United States",
                "Link": "ghgdata.epa.gov/ghgp/main.do"
            },
            "geometry": { "type": "Point", "coordinates": [-83.509247, 41.731819] }
        },
        {
            "type": "Feature",
            "properties": {
                "ID": 35132,
                "DateCreated": "2023-03-15",
                "DateUpdated": "2023-03-15",
                "DateExtractedfromSource": null,
                "Sector": "Waste Management",
                "RecordOrigin": "Collected",
                "ReviewStatus": "Pending",
                "geo_txt": { "coordinates": [-91.672622, 43.226364], "type": "Point" },
                "Facility": "Landfills",
                "DataSource": "GHGRP",
                "LocationExtractedfromSource": "DECORAH-IA",
                "City": "Castalia",
                "Country": "United States",
                "Link": "ghgdata.epa.gov/ghgp/main.do"
            },
            "geometry": { "type": "Point", "coordinates": [-91.672622, 43.226364] }
        },
        {
            "type": "Feature",
            "properties": {
                "ID": 35213,
                "DateCreated": "2023-03-15",
                "DateUpdated": "2023-03-15",
                "DateExtractedfromSource": null,
                "Sector": "Waste Management",
                "RecordOrigin": "Collected",
                "ReviewStatus": "Pending",
                "geo_txt": { "coordinates": [-94.359391, 38.88453], "type": "Point" },
                "Facility": "Landfills",
                "DataSource": "GHGRP",
                "LocationExtractedfromSource": "LEE\\\\S SUMMIT-MO",
                "City": "Lee's Summit",
                "Country": "United States",
                "Link": "ghgdata.epa.gov/ghgp/main.do"
            },
            "geometry": { "type": "Point", "coordinates": [-94.359391, 38.88453] }
        },
        {
            "type": "Feature",
            "properties": {
                "ID": 35039,
                "DateCreated": "2023-03-15",
                "DateUpdated": "2023-03-15",
                "DateExtractedfromSource": null,
                "Sector": "Waste Management",
                "RecordOrigin": "Collected",
                "ReviewStatus": "Pending",
                "geo_txt": { "coordinates": [-88.942694, 30.497528], "type": "Point" },
                "Facility": "Landfills",
                "DataSource": "GHGRP",
                "LocationExtractedfromSource": "BILOXI-MS",
                "City": "Biloxi",
                "Country": "United States",
                "Link": "ghgdata.epa.gov/ghgp/main.do"
            },
            "geometry": { "type": "Point", "coordinates": [-88.942694, 30.497528] }
        },
        {
            "type": "Feature",
            "properties": {
                "ID": 34864,
                "DateCreated": "2023-03-15",
                "DateUpdated": "2023-03-15",
                "DateExtractedfromSource": null,
                "Sector": "Waste Management",
                "RecordOrigin": "Collected",
                "ReviewStatus": "Pending",
                "geo_txt": { "coordinates": [-85.219631, 34.190954], "type": "Point" },
                "Facility": "Landfills",
                "DataSource": "GHGRP",
                "LocationExtractedfromSource": "ROME-GA",
                "City": "Lindale",
                "Country": "United States",
                "Link": "ghgdata.epa.gov/ghgp/main.do"
            },
            "geometry": { "type": "Point", "coordinates": [-85.219631, 34.190954] }
        },
        {
            "type": "Feature",
            "properties": {
                "ID": 34707,
                "DateCreated": "2023-03-15",
                "DateUpdated": "2023-03-15",
                "DateExtractedfromSource": null,
                "Sector": "Waste Management",
                "RecordOrigin": "Collected",
                "ReviewStatus": "Pending",
                "geo_txt": { "coordinates": [-82.334338, 34.80839], "type": "Point" },
                "Facility": "Landfills",
                "DataSource": "GHGRP",
                "LocationExtractedfromSource": "Greenville-SC",
                "City": "Greenville",
                "Country": "United States",
                "Link": "ghgdata.epa.gov/ghgp/main.do"
            },
            "geometry": { "type": "Point", "coordinates": [-82.334338, 34.80839] }
        },
        {
            "type": "Feature",
            "properties": {
                "ID": 34879,
                "DateCreated": "2023-03-15",
                "DateUpdated": "2023-03-15",
                "DateExtractedfromSource": null,
                "Sector": "Waste Management",
                "RecordOrigin": "Collected",
                "ReviewStatus": "Pending",
                "geo_txt": { "coordinates": [-85.717973, 38.135209], "type": "Point" },
                "Facility": "Landfills",
                "DataSource": "GHGRP",
                "LocationExtractedfromSource": "LOUISVILLE-KY",
                "City": "Louisville",
                "Country": "United States",
                "Link": "ghgdata.epa.gov/ghgp/main.do"
            },
            "geometry": { "type": "Point", "coordinates": [-85.717973, 38.135209] }
        },
        {
            "type": "Feature",
            "properties": {
                "ID": 34633,
                "DateCreated": "2023-03-15",
                "DateUpdated": "2023-03-15",
                "DateExtractedfromSource": null,
                "Sector": "Waste Management",
                "RecordOrigin": "Collected",
                "ReviewStatus": "Pending",
                "geo_txt": { "coordinates": [-81.070486, 33.912788], "type": "Point" },
                "Facility": "Landfills",
                "DataSource": "GHGRP",
                "LocationExtractedfromSource": "West Columbia-SC",
                "City": "West Columbia",
                "Country": "United States",
                "Link": "ghgdata.epa.gov/ghgp/main.do"
            },
            "geometry": { "type": "Point", "coordinates": [-81.070486, 33.912788] }
        },
        {
            "type": "Feature",
            "properties": {
                "ID": 35248,
                "DateCreated": "2023-03-15",
                "DateUpdated": "2023-03-15",
                "DateExtractedfromSource": null,
                "Sector": "Waste Management",
                "RecordOrigin": "Collected",
                "ReviewStatus": "Pending",
                "geo_txt": { "coordinates": [-95.3549, 28.9792], "type": "Point" },
                "Facility": "Landfills",
                "DataSource": "GHGRP",
                "LocationExtractedfromSource": "FREEPORT-TX",
                "City": "Freeport",
                "Country": "United States",
                "Link": "ghgdata.epa.gov/ghgp/main.do"
            },
            "geometry": { "type": "Point", "coordinates": [-95.3549, 28.9792] }
        },
        {
            "type": "Feature",
            "properties": {
                "ID": 34840,
                "DateCreated": "2023-03-15",
                "DateUpdated": "2023-03-15",
                "DateExtractedfromSource": null,
                "Sector": "Waste Management",
                "RecordOrigin": "Collected",
                "ReviewStatus": "Pending",
                "geo_txt": { "coordinates": [-84.7569, 35.2964], "type": "Point" },
                "Facility": "Landfills",
                "DataSource": "GHGRP",
                "LocationExtractedfromSource": "CALHOUN-TN",
                "City": "Calhoun",
                "Country": "United States",
                "Link": "ghgdata.epa.gov/ghgp/main.do"
            },
            "geometry": { "type": "Point", "coordinates": [-84.7569, 35.2964] }
        },
        {
            "type": "Feature",
            "properties": {
                "ID": 34400,
                "DateCreated": "2023-03-15",
                "DateUpdated": "2023-03-15",
                "DateExtractedfromSource": null,
                "Sector": "Waste Management",
                "RecordOrigin": "Collected",
                "ReviewStatus": "Pending",
                "geo_txt": { "coordinates": [-75.09315, 39.45253], "type": "Point" },
                "Facility": "Landfills",
                "DataSource": "GHGRP",
                "LocationExtractedfromSource": "MILLVILLE-NJ",
                "City": "Norma",
                "Country": "United States",
                "Link": "ghgdata.epa.gov/ghgp/main.do"
            },
            "geometry": { "type": "Point", "coordinates": [-75.09315, 39.45253] }
        },
        {
            "type": "Feature",
            "properties": {
                "ID": 34895,
                "DateCreated": "2023-03-15",
                "DateUpdated": "2023-03-15",
                "DateExtractedfromSource": null,
                "Sector": "Waste Management",
                "RecordOrigin": "Collected",
                "ReviewStatus": "Pending",
                "geo_txt": { "coordinates": [-85.986151, 34.696305], "type": "Point" },
                "Facility": "Landfills",
                "DataSource": "GHGRP",
                "LocationExtractedfromSource": "Scottsboro-AL",
                "City": "Hollywood",
                "Country": "United States",
                "Link": "ghgdata.epa.gov/ghgp/main.do"
            },
            "geometry": { "type": "Point", "coordinates": [-85.986151, 34.696305] }
        },
        {
            "type": "Feature",
            "properties": {
                "ID": 22416,
                "DateCreated": "2023-03-15",
                "DateUpdated": "2023-03-15",
                "DateExtractedfromSource": null,
                "Sector": "Waste Management",
                "RecordOrigin": "Collected",
                "ReviewStatus": "Pending",
                "geo_txt": { "coordinates": [-75.130331, 43.072769], "type": "Point" },
                "Facility": "Landfills",
                "DataSource": "GHGRP",
                "LocationExtractedfromSource": "FRANKFORT-NY",
                "City": "Frankfort",
                "Country": "United States",
                "Link": "ghgdata.epa.gov/ghgp/main.do"
            },
            "geometry": { "type": "Point", "coordinates": [-75.130331, 43.072769] }
        },
        {
            "type": "Feature",
            "properties": {
                "ID": 35072,
                "DateCreated": "2023-03-15",
                "DateUpdated": "2023-03-15",
                "DateExtractedfromSource": null,
                "Sector": "Waste Management",
                "RecordOrigin": "Collected",
                "ReviewStatus": "Pending",
                "geo_txt": { "coordinates": [-89.8962, 44.3143], "type": "Point" },
                "Facility": "Landfills",
                "DataSource": "GHGRP",
                "LocationExtractedfromSource": "NEKOOSA-WI",
                "City": "Nekoosa",
                "Country": "United States",
                "Link": "ghgdata.epa.gov/ghgp/main.do"
            },
            "geometry": { "type": "Point", "coordinates": [-89.8962, 44.3143] }
        },
        {
            "type": "Feature",
            "properties": {
                "ID": 34979,
                "DateCreated": "2023-03-15",
                "DateUpdated": "2023-03-15",
                "DateExtractedfromSource": null,
                "Sector": "Waste Management",
                "RecordOrigin": "Collected",
                "ReviewStatus": "Pending",
                "geo_txt": { "coordinates": [-87.873878, 42.483242], "type": "Point" },
                "Facility": "Landfills",
                "DataSource": "GHGRP",
                "LocationExtractedfromSource": "ZION-IL",
                "City": "Winthrop Harbor",
                "Country": "United States",
                "Link": "ghgdata.epa.gov/ghgp/main.do"
            },
            "geometry": { "type": "Point", "coordinates": [-87.873878, 42.483242] }
        },
        {
            "type": "Feature",
            "properties": {
                "ID": 34264,
                "DateCreated": "2023-03-15",
                "DateUpdated": "2023-03-15",
                "DateExtractedfromSource": null,
                "Sector": "Waste Management",
                "RecordOrigin": "Collected",
                "ReviewStatus": "Pending",
                "geo_txt": { "coordinates": [-121.94164, 37.45973], "type": "Point" },
                "Facility": "Landfills",
                "DataSource": "GHGRP",
                "LocationExtractedfromSource": "MILPITAS-CA",
                "City": "Milpitas",
                "Country": "United States",
                "Link": "ghgdata.epa.gov/ghgp/main.do"
            },
            "geometry": { "type": "Point", "coordinates": [-121.94164, 37.45973] }
        },
        {
            "type": "Feature",
            "properties": {
                "ID": 34464,
                "DateCreated": "2023-03-15",
                "DateUpdated": "2023-03-15",
                "DateExtractedfromSource": null,
                "Sector": "Waste Management",
                "RecordOrigin": "Collected",
                "ReviewStatus": "Pending",
                "geo_txt": { "coordinates": [-76.948346, 34.943667], "type": "Point" },
                "Facility": "Landfills",
                "DataSource": "GHGRP",
                "LocationExtractedfromSource": "New Bern-NC",
                "City": "Havelock",
                "Country": "United States",
                "Link": "ghgdata.epa.gov/ghgp/main.do"
            },
            "geometry": { "type": "Point", "coordinates": [-76.948346, 34.943667] }
        },
        {
            "type": "Feature",
            "properties": {
                "ID": 35184,
                "DateCreated": "2023-03-15",
                "DateUpdated": "2023-03-15",
                "DateExtractedfromSource": null,
                "Sector": "Waste Management",
                "RecordOrigin": "Collected",
                "ReviewStatus": "Pending",
                "geo_txt": { "coordinates": [-93.42943, 45.23715], "type": "Point" },
                "Facility": "Landfills",
                "DataSource": "GHGRP",
                "LocationExtractedfromSource": "Ramsey-MN",
                "City": "Ramsey",
                "Country": "United States",
                "Link": "ghgdata.epa.gov/ghgp/main.do"
            },
            "geometry": { "type": "Point", "coordinates": [-93.42943, 45.23715] }
        },
        {
            "type": "Feature",
            "properties": {
                "ID": 35133,
                "DateCreated": "2023-03-15",
                "DateUpdated": "2023-03-15",
                "DateExtractedfromSource": null,
                "Sector": "Waste Management",
                "RecordOrigin": "Collected",
                "ReviewStatus": "Pending",
                "geo_txt": { "coordinates": [-91.83957, 45.69543], "type": "Point" },
                "Facility": "Landfills",
                "DataSource": "GHGRP",
                "LocationExtractedfromSource": "SARONA-WI",
                "City": "Sarona",
                "Country": "United States",
                "Link": "ghgdata.epa.gov/ghgp/main.do"
            },
            "geometry": { "type": "Point", "coordinates": [-91.83957, 45.69543] }
        },
        {
            "type": "Feature",
            "properties": {
                "ID": 34729,
                "DateCreated": "2023-03-15",
                "DateUpdated": "2023-03-15",
                "DateExtractedfromSource": null,
                "Sector": "Waste Management",
                "RecordOrigin": "Collected",
                "ReviewStatus": "Pending",
                "geo_txt": { "coordinates": [-82.832451, 35.552899], "type": "Point" },
                "Facility": "Landfills",
                "DataSource": "GHGRP",
                "LocationExtractedfromSource": "Canton-NC",
                "City": "Canton",
                "Country": "United States",
                "Link": "ghgdata.epa.gov/ghgp/main.do"
            },
            "geometry": { "type": "Point", "coordinates": [-82.832451, 35.552899] }
        },
        {
            "type": "Feature",
            "properties": {
                "ID": 34775,
                "DateCreated": "2023-03-15",
                "DateUpdated": "2023-03-15",
                "DateExtractedfromSource": null,
                "Sector": "Waste Management",
                "RecordOrigin": "Collected",
                "ReviewStatus": "Pending",
                "geo_txt": { "coordinates": [-83.809799, 36.045293], "type": "Point" },
                "Facility": "Landfills",
                "DataSource": "GHGRP",
                "LocationExtractedfromSource": "KNOXVILLE-TN",
                "City": "Knoxville",
                "Country": "United States",
                "Link": "ghgdata.epa.gov/ghgp/main.do"
            },
            "geometry": { "type": "Point", "coordinates": [-83.809799, 36.045293] }
        },
        {
            "type": "Feature",
            "properties": {
                "ID": 35221,
                "DateCreated": "2023-03-15",
                "DateUpdated": "2023-03-15",
                "DateExtractedfromSource": null,
                "Sector": "Waste Management",
                "RecordOrigin": "Collected",
                "ReviewStatus": "Pending",
                "geo_txt": { "coordinates": [-94.681272, 31.648515], "type": "Point" },
                "Facility": "Landfills",
                "DataSource": "GHGRP",
                "LocationExtractedfromSource": "Nacogdoches-TX",
                "City": "Nacogdoches",
                "Country": "United States",
                "Link": "ghgdata.epa.gov/ghgp/main.do"
            },
            "geometry": { "type": "Point", "coordinates": [-94.681272, 31.648515] }
        },
        {
            "type": "Feature",
            "properties": {
                "ID": 34833,
                "DateCreated": "2023-03-15",
                "DateUpdated": "2023-03-15",
                "DateExtractedfromSource": null,
                "Sector": "Waste Management",
                "RecordOrigin": "Collected",
                "ReviewStatus": "Pending",
                "geo_txt": { "coordinates": [-84.641051, 39.688082], "type": "Point" },
                "Facility": "Landfills",
                "DataSource": "GHGRP",
                "LocationExtractedfromSource": "EATON-OH",
                "City": "Eaton",
                "Country": "United States",
                "Link": "ghgdata.epa.gov/ghgp/main.do"
            },
            "geometry": { "type": "Point", "coordinates": [-84.641051, 39.688082] }
        },
        {
            "type": "Feature",
            "properties": {
                "ID": 34753,
                "DateCreated": "2023-03-15",
                "DateUpdated": "2023-03-15",
                "DateExtractedfromSource": null,
                "Sector": "Waste Management",
                "RecordOrigin": "Collected",
                "ReviewStatus": "Pending",
                "geo_txt": { "coordinates": [-83.494311, 42.110086], "type": "Point" },
                "Facility": "Landfills",
                "DataSource": "GHGRP",
                "LocationExtractedfromSource": "SUMPTER TWP-MI",
                "City": "Willis",
                "Country": "United States",
                "Link": "ghgdata.epa.gov/ghgp/main.do"
            },
            "geometry": { "type": "Point", "coordinates": [-83.494311, 42.110086] }
        },
        {
            "type": "Feature",
            "properties": {
                "ID": 34799,
                "DateCreated": "2023-03-15",
                "DateUpdated": "2023-03-15",
                "DateExtractedfromSource": null,
                "Sector": "Waste Management",
                "RecordOrigin": "Collected",
                "ReviewStatus": "Pending",
                "geo_txt": { "coordinates": [-84.168816, 39.36463], "type": "Point" },
                "Facility": "Landfills",
                "DataSource": "GHGRP",
                "LocationExtractedfromSource": "MORROW-OH",
                "City": "South Lebanon",
                "Country": "United States",
                "Link": "ghgdata.epa.gov/ghgp/main.do"
            },
            "geometry": { "type": "Point", "coordinates": [-84.168816, 39.36463] }
        },
        {
            "type": "Feature",
            "properties": {
                "ID": 35104,
                "DateCreated": "2023-03-15",
                "DateUpdated": "2023-03-15",
                "DateExtractedfromSource": null,
                "Sector": "Waste Management",
                "RecordOrigin": "Collected",
                "ReviewStatus": "Pending",
                "geo_txt": { "coordinates": [-90.763977, 38.170254], "type": "Point" },
                "Facility": "Landfills",
                "DataSource": "GHGRP",
                "LocationExtractedfromSource": "RICHWOODS-MO",
                "City": "Luebbering",
                "Country": "United States",
                "Link": "ghgdata.epa.gov/ghgp/main.do"
            },
            "geometry": { "type": "Point", "coordinates": [-90.763977, 38.170254] }
        },
        {
            "type": "Feature",
            "properties": {
                "ID": 34527,
                "DateCreated": "2023-03-15",
                "DateUpdated": "2023-03-15",
                "DateExtractedfromSource": null,
                "Sector": "Waste Management",
                "RecordOrigin": "Collected",
                "ReviewStatus": "Pending",
                "geo_txt": { "coordinates": [-78.844874, 35.682582], "type": "Point" },
                "Facility": "Landfills",
                "DataSource": "GHGRP",
                "LocationExtractedfromSource": "APEX-NC",
                "City": "Apex",
                "Country": "United States",
                "Link": "ghgdata.epa.gov/ghgp/main.do"
            },
            "geometry": { "type": "Point", "coordinates": [-78.844874, 35.682582] }
        },
        {
            "type": "Feature",
            "properties": {
                "ID": 34634,
                "DateCreated": "2023-03-15",
                "DateUpdated": "2023-03-15",
                "DateExtractedfromSource": null,
                "Sector": "Waste Management",
                "RecordOrigin": "Collected",
                "ReviewStatus": "Pending",
                "geo_txt": { "coordinates": [-81.074946, 40.944907], "type": "Point" },
                "Facility": "Landfills",
                "DataSource": "GHGRP",
                "LocationExtractedfromSource": "ALLIANCE-OH",
                "City": "Sebring",
                "Country": "United States",
                "Link": "ghgdata.epa.gov/ghgp/main.do"
            },
            "geometry": { "type": "Point", "coordinates": [-81.074946, 40.944907] }
        },
        {
            "type": "Feature",
            "properties": {
                "ID": 34814,
                "DateCreated": "2023-03-15",
                "DateUpdated": "2023-03-15",
                "DateExtractedfromSource": null,
                "Sector": "Waste Management",
                "RecordOrigin": "Collected",
                "ReviewStatus": "Pending",
                "geo_txt": { "coordinates": [-84.38639, 32.44889], "type": "Point" },
                "Facility": "Landfills",
                "DataSource": "GHGRP",
                "LocationExtractedfromSource": "MAUK-GA",
                "City": "Mauk",
                "Country": "United States",
                "Link": "ghgdata.epa.gov/ghgp/main.do"
            },
            "geometry": { "type": "Point", "coordinates": [-84.38639, 32.44889] }
        },
        {
            "type": "Feature",
            "properties": {
                "ID": 35276,
                "DateCreated": "2023-03-15",
                "DateUpdated": "2023-03-15",
                "DateExtractedfromSource": null,
                "Sector": "Waste Management",
                "RecordOrigin": "Collected",
                "ReviewStatus": "Pending",
                "geo_txt": { "coordinates": [-96.534544, 33.580772], "type": "Point" },
                "Facility": "Landfills",
                "DataSource": "GHGRP",
                "LocationExtractedfromSource": "Sherman-TX",
                "City": "Tom Bean",
                "Country": "United States",
                "Link": "ghgdata.epa.gov/ghgp/main.do"
            },
            "geometry": { "type": "Point", "coordinates": [-96.534544, 33.580772] }
        },
        {
            "type": "Feature",
            "properties": {
                "ID": 22886,
                "DateCreated": "2023-03-15",
                "DateUpdated": "2023-03-15",
                "DateExtractedfromSource": null,
                "Sector": "Waste Management",
                "RecordOrigin": "Collected",
                "ReviewStatus": "Pending",
                "geo_txt": { "coordinates": [-82.712419, 39.590035], "type": "Point" },
                "Facility": "Landfills",
                "DataSource": "GHGRP",
                "LocationExtractedfromSource": "AMANDA-OH",
                "City": "Amanda",
                "Country": "United States",
                "Link": "ghgdata.epa.gov/ghgp/main.do"
            },
            "geometry": { "type": "Point", "coordinates": [-82.712419, 39.590035] }
        },
        {
            "type": "Feature",
            "properties": {
                "ID": 35328,
                "DateCreated": "2023-03-15",
                "DateUpdated": "2023-03-15",
                "DateExtractedfromSource": null,
                "Sector": "Waste Management",
                "RecordOrigin": "Collected",
                "ReviewStatus": "Pending",
                "geo_txt": { "coordinates": [-97.447277, 27.703602], "type": "Point" },
                "Facility": "Landfills",
                "DataSource": "GHGRP",
                "LocationExtractedfromSource": "CORPUS CHRISTI-TX",
                "City": "Corpus Christi",
                "Country": "United States",
                "Link": "ghgdata.epa.gov/ghgp/main.do"
            },
            "geometry": { "type": "Point", "coordinates": [-97.447277, 27.703602] }
        },
        {
            "type": "Feature",
            "properties": {
                "ID": 34945,
                "DateCreated": "2023-03-15",
                "DateUpdated": "2023-03-15",
                "DateExtractedfromSource": null,
                "Sector": "Waste Management",
                "RecordOrigin": "Collected",
                "ReviewStatus": "Pending",
                "geo_txt": { "coordinates": [-87.111402, 31.077123], "type": "Point" },
                "Facility": "Landfills",
                "DataSource": "GHGRP",
                "LocationExtractedfromSource": "BREWTON-AL",
                "City": "Brewton",
                "Country": "United States",
                "Link": "ghgdata.epa.gov/ghgp/main.do"
            },
            "geometry": { "type": "Point", "coordinates": [-87.111402, 31.077123] }
        },
        {
            "type": "Feature",
            "properties": {
                "ID": 34568,
                "DateCreated": "2023-03-15",
                "DateUpdated": "2023-03-15",
                "DateExtractedfromSource": null,
                "Sector": "Waste Management",
                "RecordOrigin": "Collected",
                "ReviewStatus": "Pending",
                "geo_txt": { "coordinates": [-79.847748, 42.036048], "type": "Point" },
                "Facility": "Landfills",
                "DataSource": "GHGRP",
                "LocationExtractedfromSource": "Wattsburg-PA",
                "City": "Wattsburg",
                "Country": "United States",
                "Link": "ghgdata.epa.gov/ghgp/main.do"
            },
            "geometry": { "type": "Point", "coordinates": [-79.847748, 42.036048] }
        },
        {
            "type": "Feature",
            "properties": {
                "ID": 35347,
                "DateCreated": "2023-03-15",
                "DateUpdated": "2023-03-15",
                "DateExtractedfromSource": null,
                "Sector": "Waste Management",
                "RecordOrigin": "Collected",
                "ReviewStatus": "Pending",
                "geo_txt": { "coordinates": [-97.91571, 34.913006], "type": "Point" },
                "Facility": "Landfills",
                "DataSource": "GHGRP",
                "LocationExtractedfromSource": "Ninnekah-OK",
                "City": "Ninnekah",
                "Country": "United States",
                "Link": "ghgdata.epa.gov/ghgp/main.do"
            },
            "geometry": { "type": "Point", "coordinates": [-97.91571, 34.913006] }
        },
        {
            "type": "Feature",
            "properties": {
                "ID": 35355,
                "DateCreated": "2023-03-15",
                "DateUpdated": "2023-03-15",
                "DateExtractedfromSource": null,
                "Sector": "Waste Management",
                "RecordOrigin": "Collected",
                "ReviewStatus": "Pending",
                "geo_txt": { "coordinates": [-98.326169, 26.399768], "type": "Point" },
                "Facility": "Landfills",
                "DataSource": "GHGRP",
                "LocationExtractedfromSource": "Edinburg-TX",
                "City": "Edinburg",
                "Country": "United States",
                "Link": "ghgdata.epa.gov/ghgp/main.do"
            },
            "geometry": { "type": "Point", "coordinates": [-98.326169, 26.399768] }
        },
        {
            "type": "Feature",
            "properties": {
                "ID": 35240,
                "DateCreated": "2023-03-15",
                "DateUpdated": "2023-03-15",
                "DateExtractedfromSource": null,
                "Sector": "Waste Management",
                "RecordOrigin": "Collected",
                "ReviewStatus": "Pending",
                "geo_txt": { "coordinates": [-95.24071, 29.82204], "type": "Point" },
                "Facility": "Landfills",
                "DataSource": "GHGRP",
                "LocationExtractedfromSource": "HOUSTON-TX",
                "City": "Houston",
                "Country": "United States",
                "Link": "ghgdata.epa.gov/ghgp/main.do"
            },
            "geometry": { "type": "Point", "coordinates": [-95.24071, 29.82204] }
        },
        {
            "type": "Feature",
            "properties": {
                "ID": 35261,
                "DateCreated": "2023-03-15",
                "DateUpdated": "2023-03-15",
                "DateExtractedfromSource": null,
                "Sector": "Waste Management",
                "RecordOrigin": "Collected",
                "ReviewStatus": "Pending",
                "geo_txt": { "coordinates": [-95.880534, 33.177689], "type": "Point" },
                "Facility": "Landfills",
                "DataSource": "GHGRP",
                "LocationExtractedfromSource": "CAMPBELL-TX",
                "City": "Campbell",
                "Country": "United States",
                "Link": "ghgdata.epa.gov/ghgp/main.do"
            },
            "geometry": { "type": "Point", "coordinates": [-95.880534, 33.177689] }
        },
        {
            "type": "Feature",
            "properties": {
                "ID": 35319,
                "DateCreated": "2023-03-15",
                "DateUpdated": "2023-03-15",
                "DateExtractedfromSource": null,
                "Sector": "Waste Management",
                "RecordOrigin": "Collected",
                "ReviewStatus": "Pending",
                "geo_txt": { "coordinates": [-97.203888, 32.3575], "type": "Point" },
                "Facility": "Landfills",
                "DataSource": "GHGRP",
                "LocationExtractedfromSource": "ALVARADO-TX",
                "City": "Alvarado",
                "Country": "United States",
                "Link": "ghgdata.epa.gov/ghgp/main.do"
            },
            "geometry": { "type": "Point", "coordinates": [-97.203888, 32.3575] }
        },
        {
            "type": "Feature",
            "properties": {
                "ID": 35181,
                "DateCreated": "2023-03-15",
                "DateUpdated": "2023-03-15",
                "DateExtractedfromSource": null,
                "Sector": "Waste Management",
                "RecordOrigin": "Collected",
                "ReviewStatus": "Pending",
                "geo_txt": { "coordinates": [-93.3548, 41.5989], "type": "Point" },
                "Facility": "Landfills",
                "DataSource": "GHGRP",
                "LocationExtractedfromSource": "MITCHELLVILLE-IA",
                "City": "Mitchellville",
                "Country": "United States",
                "Link": "ghgdata.epa.gov/ghgp/main.do"
            },
            "geometry": { "type": "Point", "coordinates": [-93.3548, 41.5989] }
        },
        {
            "type": "Feature",
            "properties": {
                "ID": 34810,
                "DateCreated": "2023-03-15",
                "DateUpdated": "2023-03-15",
                "DateExtractedfromSource": null,
                "Sector": "Waste Management",
                "RecordOrigin": "Collected",
                "ReviewStatus": "Pending",
                "geo_txt": { "coordinates": [-84.33589, 33.65955], "type": "Point" },
                "Facility": "Landfills",
                "DataSource": "GHGRP",
                "LocationExtractedfromSource": "CONLEY-GA",
                "City": "Conley",
                "Country": "United States",
                "Link": "ghgdata.epa.gov/ghgp/main.do"
            },
            "geometry": { "type": "Point", "coordinates": [-84.33589, 33.65955] }
        },
        {
            "type": "Feature",
            "properties": {
                "ID": 34703,
                "DateCreated": "2023-03-15",
                "DateUpdated": "2023-03-15",
                "DateExtractedfromSource": null,
                "Sector": "Waste Management",
                "RecordOrigin": "Collected",
                "ReviewStatus": "Pending",
                "geo_txt": { "coordinates": [-82.279142, 39.45634], "type": "Point" },
                "Facility": "Landfills",
                "DataSource": "GHGRP",
                "LocationExtractedfromSource": "Nelsonville-OH",
                "City": "Nelsonville",
                "Country": "United States",
                "Link": "ghgdata.epa.gov/ghgp/main.do"
            },
            "geometry": { "type": "Point", "coordinates": [-82.279142, 39.45634] }
        },
        {
            "type": "Feature",
            "properties": {
                "ID": 34222,
                "DateCreated": "2023-03-15",
                "DateUpdated": "2023-03-15",
                "DateExtractedfromSource": null,
                "Sector": "Waste Management",
                "RecordOrigin": "Collected",
                "ReviewStatus": "Pending",
                "geo_txt": { "coordinates": [-119.632384, 39.500139], "type": "Point" },
                "Facility": "Landfills",
                "DataSource": "GHGRP",
                "LocationExtractedfromSource": "LOCKWOOD-NV",
                "City": "Sparks",
                "Country": "United States",
                "Link": "ghgdata.epa.gov/ghgp/main.do"
            },
            "geometry": { "type": "Point", "coordinates": [-119.632384, 39.500139] }
        },